{"station_id": 236, "station_name": "Biała Podlaska, ul. Orzechowa", "latitude": 52.029194, "longitude": 23.149389, "city": "Biała Podlaska", "commune": "Biała Podlaska", "province": "LUBELSKIE"}
{"station_id": 248, "station_name": "Jarczew, IMGW", "latitude": 51.814367, "longitude": 21.972375, "city": "Jarczew", "commune": "Wola Mysłowska", "province": "LUBELSKIE"}
{"station_id": 250, "station_name": "Kraśnik, ul. Koszarowa", "latitude": 50.928239, "longitude": 22.228308, "city": "Kraśnik", "commune": "Kraśnik", "province": "LUBELSKIE"}
{"station_id": 258, "station_name": "Lublin, ul. Śliwińskiego", "latitude": 51.273078, "longitude": 22.551675, "city": "Lublin", "commune": "Lublin", "province": "LUBELSKIE"}
{"station_id": 266, "station_name": "Lublin, ul. Obywatelska", "latitude": 51.259431, "longitude": 22.569133, "city": "Lublin", "commune": "Lublin", "province": "LUBELSKIE"}
{"station_id": 275, "station_name": "Radzyń Podlaski, ul. Sitkowskiego", "latitude": 51.78, "longitude": 22.625944, "city": "Radzyń Podlaski", "commune": "Radzyń Podlaski", "province": "LUBELSKIE"}
{"station_id": 282, "station_name": "Wilczopole", "latitude": 51.163542, "longitude": 22.598608, "city": "Wilczopole", "commune": "Głusk", "province": "LUBELSKIE"}
{"station_id": 285, "station_name": "Zamość, ul. Hrubieszowska", "latitude": 50.716628, "longitude": 23.290247, "city": "Zamość", "commune": "Zamość", "province": "LUBELSKIE"}
{"station_id": 10874, "station_name": "Florianka, RPN", "latitude": 50.551894, "longitude": 22.982861, "city": "Florianka", "commune": "Józefów", "province": "LUBELSKIE"}
{"station_id": 11360, "station_name": "Chełm, ul. Połaniecka", "latitude": 51.122147, "longitude": 23.473075, "city": "Chełm", "commune": "Chełm", "province": "LUBELSKIE"}
{"station_id": 11362, "station_name": "Nałęczów, Al. Małachowskiego", "latitude": 51.284931, "longitude": 22.210242, "city": "Nałęczów", "commune": "Nałęczów", "province": "LUBELSKIE"}
{"station_id": 12096, "station_name": "Lublin, ul. Okopowa", "latitude": 51.245464, "longitude": 22.554994, "city": "Lublin", "commune": "Lublin", "province": "LUBELSKIE"}
{"station_id": 12098, "station_name": "Krasnobród, ul. Sanatoryjna", "latitude": 50.549297, "longitude": 23.197317, "city": "Krasnobród", "commune": "Krasnobród", "province": "LUBELSKIE"}
{"station_id": 20277, "station_name": "Tomaszów Lubelski, ul. Janusza Petera", "latitude": 50.444128, "longitude": 23.421553, "city": "Tomaszów Lubelski", "commune": "Tomaszów Lubelski", "province": "LUBELSKIE"}
